[
  {
    "Id": "001",
    "Name": "นางกัญญา หงษ์ทอง",
    "Nickname": "ญา",
    "Phone": "0874720346",
    "latitude": 9.086613,
    "longitude": 99.222596
  },
  {
    "Id": "002",
    "Name": "นายทวีศักดิ์ ดารารัตน์",
    "Nickname": "เขอะ",
    "Phone": "0862665899",
    "latitude": 9.087082,
    "longitude": 99.223427
  },
  {
    "Id": "003",
    "Name": "นางสิริวิมล ศรีจันทร์โฉม",
    "Nickname": "ปอง",
    "Phone": "0831819231",
    "latitude": 9.088861,
    "longitude": 99.228247
  },
  {
    "Id": "004",
    "Name": "นายนัฐพงษ์ ศรีจันทร์โฉม",
    "Nickname": "บูรณ์",
    "Phone": "0810807177",
    "latitude": 9.088861,
    "longitude": 99.228247
  },
  {
    "Id": "005",
    "Name": "นายสมพนธ์ ไทยบุญรอด",
    "Nickname": "พนธ์",
    "Phone": "0823700821",
    "latitude": 9.091115,
    "longitude": 99.231382
  },
  {
    "Id": "006",
    "Name": "นางปราณี จำนงค์พันธ์",
    "Nickname": "แหว๋ว",
    "Phone": "0907139981",
    "latitude": 9.087025,
    "longitude": 99.224943
  },
  {
    "Id": "007",
    "Name": "นางมะลิ สุขสมัย",
    "Nickname": "นงค์",
    "Phone": "0869482705",
    "latitude": "",
    "longitude": ""
  },
  {
    "Id": "009",
    "Name": "นายชำนาญ ชูราศรี",
    "Nickname": "เบิ้ม",
    "Phone": "0817978221",
    "latitude": 9.086613,
    "longitude": 99.222596
  },
  {
    "Id": "010",
    "Name": "นายวิวัฒน์ จีนคล้ำ",
    "Nickname": "วัฒน์",
    "Phone": "0986264616",
    "latitude": "",
    "longitude": ""
  },
  {
    "Id": "011",
    "Name": "นายธงชัย ทัศเจริญสุข",
    "Nickname": "ชัย",
    "Phone": "0993104390",
    "latitude": 9.088029,
    "longitude": 99.226425
  },
  {
    "Id": "012",
    "Name": "นางสาวบัณฑิตา ทัศเจริญสุข",
    "Nickname": "ปุ้ย",
    "Phone": "0897273189",
    "latitude": 9.08598,
    "longitude": 99.227941
  },
  {
    "Id": "013",
    "Name": "นายเสน่ห์ ศรีจันทร์โฉม",
    "Nickname": "เสน่ห์",
    "Phone": "0856116365",
    "latitude": 9.085769,
    "longitude": 99.230479
  },
  {
    "Id": "014",
    "Name": "นางยุพิณ ปานวัลย์",
    "Nickname": "หีต",
    "Phone": "0927457954",
    "latitude": "",
    "longitude": ""
  },
  {
    "Id": "015",
    "Name": "นายสุจินต์ สีเพชรแก้ว",
    "Nickname": "จินต์",
    "Phone": "0637303562",
    "latitude": 9.082621,
    "longitude": 99.246217
  },
  {
    "Id": "016",
    "Name": "นายประเสริฐ ทัศเจริญสุข",
    "Nickname": "เปี๊ยก",
    "Phone": "0867397354",
    "latitude": 9.091115,
    "longitude": 99.231382
  },
  {
    "Id": "017",
    "Name": "นายวิชิต แจ่มแจ้ง",
    "Nickname": "หนุน",
    "Phone": "0895949531",
    "latitude": "",
    "longitude": ""
  },
  {
    "Id": "018",
    "Name": "นายเสน่ห์ จำนงค์พันธ์",
    "Nickname": "จ้อน",
    "Phone": "0980132305",
    "latitude": "",
    "longitude": ""
  },
  {
    "Id": "019",
    "Name": "นายสุเทพ ทองภักดี",
    "Nickname": "ตะ",
    "Phone": "0937230937",
    "latitude": 9.080936,
    "longitude": 99.211903
  },
  {
    "Id": "020",
    "Name": "นายพันธุ์ธัช เนตรรุ่ง",
    "Nickname": "โอ๋",
    "Phone": "0628416914",
    "latitude": "",
    "longitude": ""
  },
  {
    "Id": "021",
    "Name": "นายสิทธิพล โตประศรี",
    "Nickname": "แมว",
    "Phone": "0836370938",
    "latitude": 9.082109,
    "longitude": 99.225626
  },
  {
    "Id": "022",
    "Name": "นายเทวัน ทองดี",
    "Nickname": "วัน",
    "Phone": "0631406755",
    "latitude": "",
    "longitude": ""
  },
  {
    "Id": "023",
    "Name": "นายสายชล ศรีสุขหู้",
    "Nickname": "หมู",
    "Phone": "0937433814",
    "latitude": "",
    "longitude": ""
  },
  {
    "Id": "024",
    "Name": "นายเอกชัย วุฒิพิริยะกุล",
    "Nickname": "เอก",
    "Phone": "0620034086",
    "latitude": "",
    "longitude": ""
  },
  {
    "Id": "025",
    "Name": "นายจักรินทร์ ดารารัตน์",
    "Nickname": "ตุ๊ก",
    "Phone": "0896454193",
    "latitude": "",
    "longitude": ""
  },
  {
    "Id": "026",
    "Name": "นายเชาจลิต ศรีโหมดสุข",
    "Nickname": "นาท",
    "Phone": "0836393059",
    "latitude": "",
    "longitude": ""
  },
  {
    "Id": "027",
    "Name": "นายนิวัติ ทัศเจริญสุข",
    "Nickname": "แอ๊ด",
    "Phone": "0950318091",
    "latitude": "",
    "longitude": ""
  },
  {
    "Id": "028",
    "Name": "นางสมนึก สุขสมัย",
    "Nickname": "นึก",
    "Phone": "0806473494",
    "latitude": 9.089907,
    "longitude": 99.23065
  },
  {
    "Id": "029",
    "Name": "นางนิตยา ศรีโหมดสุข",
    "Nickname": "ยา",
    "Phone": "0804145830",
    "latitude": "",
    "longitude": ""
  },
  {
    "Id": "030",
    "Name": "นางสาวสมคิด ศรีโหมดสุข",
    "Nickname": "หยิก",
    "Phone": "0862696901",
    "latitude": "",
    "longitude": ""
  },
  {
    "Id": "031",
    "Name": "นางกัญญา รองเมือง",
    "Nickname": "กัญญา",
    "Phone": "",
    "latitude": "",
    "longitude": ""
  },
  {
    "Id": "032",
    "Name": "นางสาววันทนา สุวรรณโสภา",
    "Nickname": "น้ำ",
    "Phone": "0936689301",
    "latitude": "",
    "longitude": ""
  },
  {
    "Id": "033",
    "Name": "นายสุรสิทธิ์ คงหนู",
    "Nickname": "โจ้",
    "Phone": "0894434357",
    "latitude": 9.087025,
    "longitude": 99.224943
  },
  {
    "Id": "034",
    "Name": "นายประวิทย์ คชไกร",
    "Nickname": "-",
    "Phone": "0641704540",
    "latitude": "",
    "longitude": ""
  },
  {
    "Id": "035",
    "Name": "นายสันติ โตประศรี",
    "Nickname": "ติ",
    "Phone": "0954234630",
    "latitude": 9.084049,
    "longitude": 99.226795
  },
  {
    "Id": "036",
    "Name": "นาวสาวสุดารัตน์ วัฒเพชร",
    "Nickname": "อุ้ย",
    "Phone": "0937272159",
    "latitude": 9.082313,
    "longitude": 99.226432
  },
  {
    "Id": "037",
    "Name": "นางสาวคนิตฐา ชื่นชมน้อย",
    "Nickname": "นก",
    "Phone": "0980401145",
    "latitude": "",
    "longitude": ""
  },
  {
    "Id": "038",
    "Name": "นายจักรพงศ์ จำนงค์พันธ์",
    "Nickname": "จักร",
    "Phone": "0653940655",
    "latitude": 9.080936,
    "longitude": 99.211903
  },
  {
    "Id": "039",
    "Name": "นายจำลอง จำนงค์พันธ์",
    "Nickname": "ลอง",
    "Phone": "0892877351",
    "latitude": "",
    "longitude": ""
  },
  {
    "Id": "040",
    "Name": "นายวัฒนา พรตะโก",
    "Nickname": "จ้อย",
    "Phone": "0869543941",
    "latitude": "",
    "longitude": ""
  },
  {
    "Id": "041",
    "Name": "นายหัสเดช หวานสนิท",
    "Nickname": "ติ่ง",
    "Phone": "0843758239",
    "latitude": "",
    "longitude": ""
  },
  {
    "Id": "042",
    "Name": "นางสาววิจิตรา ทัศเจริญสุข",
    "Nickname": "กุ้ง",
    "Phone": "0948175917",
    "latitude": 9.087082,
    "longitude": 99.223427
  },
  {
    "Id": "043",
    "Name": "นางสาวกัญญารัตน์ ทัศเจริญสุข",
    "Nickname": "ก้อย",
    "Phone": "0993104395",
    "latitude": 9.087082,
    "longitude": 99.223427
  },
  {
    "Id": "044",
    "Name": "นายสนธยา เฉลิมพันธ์",
    "Nickname": "สน",
    "Phone": "0887874556",
    "latitude": "",
    "longitude": ""
  },
  {
    "Id": "045",
    "Name": "นายสามารถ สีเพชรแก้ว",
    "Nickname": "โจ้",
    "Phone": "0963471040",
    "latitude": "",
    "longitude": ""
  },
  {
    "Id": "046",
    "Name": "นางจีรนาท ทองจันทร์",
    "Nickname": "แอน",
    "Phone": "",
    "latitude": "",
    "longitude": ""
  },
  {
    "Id": "047",
    "Name": "นายสิทธิโชค พาหมะ",
    "Nickname": "บ่าว",
    "Phone": "",
    "latitude": "",
    "longitude": ""
  },
  {
    "Id": "048",
    "Name": "นายพลสิงห์ ศรีบุญลักษ์",
    "Nickname": "แซม",
    "Phone": "0628302796",
    "latitude": "",
    "longitude": ""
  },
  {
    "Id": "049",
    "Name": "นางผ่องศรี ศรีจันทร์โฉม",
    "Nickname": "ศรี",
    "Phone": "",
    "latitude": "",
    "longitude": ""
  },
  {
    "Id": "050",
    "Name": "นางสุนีย์ จำนงค์พันธ์",
    "Nickname": "ดำ",
    "Phone": "",
    "latitude": "",
    "longitude": ""
  }
]